{
  "cities": [
    {
      "cityName": "Lisbon",
      "country": "Portugal",
      "emoji": "游왫릖",
      "date": "2027-10-31T15:59:59.138Z",
      "notes": "My favorite city so far!",
      "position": {
        "lat": 38.727881642324164,
        "lng": -9.140900099907554
      },
      "id": 73930385
    },
    {
      "cityName": "Madrid",
      "country": "Spain",
      "emoji": "游쀯릖",
      "date": "2027-07-15T08:22:53.976Z",
      "notes": "",
      "position": {
        "lat": 40.46635901755316,
        "lng": -3.7133789062500004
      },
      "id": 17806751
    },
    {
      "cityName": "Berlin",
      "country": "Germany",
      "emoji": "游뾇릖",
      "date": "2027-02-12T09:24:11.863Z",
      "notes": "Amazing 游땎",
      "position": {
        "lat": 52.53586782505711,
        "lng": 13.376933665713324
      },
      "id": 98443197
    },
    {
      "cityName": "La Fuente de San Esteban",
      "country": "Spain",
      "emoji": "游쀯릖",
      "date": "2023-07-11T15:43:31.221Z",
      "notes": "",
      "position": {
        "lat": "40.81380923056961",
        "lng": "-6.284179687500001"
      },
      "id": 98443198
    },
    {
      "cityName": "Ikeja",
      "country": "Nigeria",
      "emoji": "游游",
      "date": "2023-07-11T15:45:54.128Z",
      "notes": "Nigeria bro!",
      "position": {
        "lat": "6.630957893987549",
        "lng": "3.341032196044936"
      },
      "id": 98443199
    },
    {
      "cityName": "Freetown",
      "country": "Sierra Leone",
      "emoji": "游젏릖",
      "date": "2023-07-11T17:07:36.035Z",
      "notes": "",
      "position": {
        "lat": "8.494104537551882",
        "lng": "-13.249511718750002"
      },
      "id": 98443200
    },
    {
      "cityName": "Di칠ma Cercle",
      "country": "Mali",
      "emoji": "游쓇릖",
      "date": "2023-07-11T17:08:24.344Z",
      "notes": "",
      "position": {
        "lat": "14.583583455156525",
        "lng": "-8.393554687500002"
      },
      "id": 98443202
    },
    {
      "cityName": "Al Haouz",
      "country": "Morocco",
      "emoji": "游쓇릖",
      "date": "2023-07-11T17:11:23.853Z",
      "notes": "",
      "position": {
        "lat": "31.27855085894653",
        "lng": "-7.822265625000001"
      },
      "id": 98443203
    },
    {
      "cityName": "Cerezo de Abajo",
      "country": "Spain",
      "emoji": "游쀯릖",
      "date": "2023-07-11T17:14:07.934Z",
      "notes": "",
      "position": {
        "lat": "41.21172151054787",
        "lng": "-3.6035156250000004"
      },
      "id": 98443204
    },
    {
      "cityName": "Paris",
      "country": "France",
      "emoji": "游游",
      "date": "2023-07-11T17:21:16.943Z",
      "notes": "Wuhu Paris here I come.",
      "position": {
        "lat": "48.8556101298332",
        "lng": "2.357259916992183"
      },
      "id": 98443205
    },
    {
      "cityName": "Amsterdam",
      "country": "Netherlands",
      "emoji": "游游",
      "date": "2023-07-11T17:24:26.208Z",
      "notes": "Wuhu! Amsterdam here I come",
      "position": {
        "lat": "52.377275885161175",
        "lng": "5.031738281250001"
      },
      "id": 98443207
    },
    {
      "cityName": "Andilla",
      "country": "Spain",
      "emoji": "游쀯릖",
      "date": "2023-07-11T17:55:56.474Z",
      "notes": "",
      "position": {
        "lat": "39.774769485295465",
        "lng": "-0.81298828125"
      },
      "id": 98443208
    },
    {
      "cityName": "La Massana",
      "country": "Andorra",
      "emoji": "游뷣릖",
      "date": "2023-07-11T17:57:22.970Z",
      "notes": "",
      "position": {
        "lat": "42.53689200787317",
        "lng": "1.5380859375000002"
      },
      "id": 98443209
    },
    {
      "cityName": "Santa Cruz De La Salceda",
      "country": "Spain",
      "emoji": "游쀯릖",
      "date": "2023-07-11T17:59:51.240Z",
      "notes": "",
      "position": {
        "lat": "41.60722821271717",
        "lng": "-3.6035156250000004"
      },
      "id": 98443210
    },
    {
      "cityName": "Cheissoux",
      "country": "France",
      "emoji": "游游",
      "date": "2023-07-11T18:12:23.830Z",
      "notes": "",
      "position": {
        "lat": "45.84410779560204",
        "lng": "1.6259765625"
      },
      "id": 98443211
    },
    {
      "cityName": "Maj치n",
      "country": "Spain",
      "emoji": "游쀯릖",
      "date": "2023-07-11T21:41:38.948Z",
      "notes": "It works!!!",
      "position": {
        "lat": "41.44272637767212",
        "lng": "-2.2851562500000004"
      },
      "id": 98443212
    },
    {
      "cityName": "Alfaro",
      "country": "Spain",
      "emoji": "游쀯릖",
      "date": "2023-07-11T21:42:06.249Z",
      "notes": "",
      "position": {
        "lat": "42.13082130188811",
        "lng": "-1.7138671875000002"
      },
      "id": 98443213
    },
    {
      "cityName": "Al Mallahah al Bahriyah",
      "country": "Libya",
      "emoji": "游쐟릖",
      "date": "2023-07-11T22:20:08.160Z",
      "notes": "Yay!",
      "position": {
        "lat": "30.675715404167743",
        "lng": "12.041015625000002"
      },
      "id": 98443214
    },
    {
      "cityName": "Haza",
      "country": "Spain",
      "emoji": "游쀯릖",
      "date": "2023-07-11T22:24:32.669Z",
      "notes": "",
      "position": {
        "lat": "41.5579215778042",
        "lng": "-3.8891601562500004"
      },
      "id": 98443217
    },
    {
      "cityName": "Calamocha",
      "country": "Spain",
      "emoji": "游쀯릖",
      "date": "2023-07-11T22:34:06.788Z",
      "notes": "bm",
      "position": {
        "lat": "40.88029480552824",
        "lng": "-1.1865234375000002"
      },
      "id": 98443218
    },
    {
      "cityName": "Sinarcas",
      "country": "Spain",
      "emoji": "游쀯릖",
      "date": "2023-07-11T22:34:06.788Z",
      "notes": "",
      "position": {
        "lat": "39.757879992021756",
        "lng": "-1.2524414062500002"
      },
      "id": 98443219
    },
    {
      "cityName": "Luque",
      "country": "Spain",
      "emoji": "游쀯릖",
      "date": "2023-07-11T22:34:06.788Z",
      "notes": "hk",
      "position": {
        "lat": "37.59682400108367",
        "lng": "-4.284667968750001"
      },
      "id": 98443220
    },
    {
      "cityName": "Quintana y Congosto",
      "country": "Spain",
      "emoji": "游쀯릖",
      "date": "2023-07-11T22:34:06.788Z",
      "notes": "bm",
      "position": {
        "lat": "42.293564192170095",
        "lng": "-6.152343750000001"
      },
      "id": 98443221
    },
    {
      "cityName": "Malpartida De Plasencia",
      "country": "Spain",
      "emoji": "游쀯릖",
      "date": "2023-07-11T23:41:43.756Z",
      "notes": "",
      "position": {
        "lat": "40.04443758460859",
        "lng": "-5.976562500000001"
      },
      "id": 98443223
    },
    {
      "cityName": "C치ceres",
      "country": "Spain",
      "emoji": "游쀯릖",
      "date": "2023-07-13T00:24:44.747Z",
      "notes": "",
      "position": {
        "lat": "39.35129035526705",
        "lng": "-6.767578125000001"
      },
      "id": 98443226
    },
    {
      "cityName": "Bac칰ch",
      "country": "Slovakia",
      "emoji": "游젏릖",
      "date": "2023-07-13T00:26:00.209Z",
      "notes": "",
      "position": {
        "lat": "48.80686346108519",
        "lng": "19.775390625"
      },
      "id": 98443227
    },
    {
      "cityName": "Ku켹akowice Pierwsze",
      "country": "Poland",
      "emoji": "游왫릖",
      "date": "2023-07-13T00:26:00.209Z",
      "notes": "",
      "position": {
        "lat": "50.88917404890332",
        "lng": "23.818359375000004"
      },
      "id": 98443228
    },
    {
      "cityName": "Mora",
      "country": "Spain",
      "emoji": "游쀯릖",
      "date": "2023-07-13T00:47:30.320Z",
      "notes": "",
      "position": {
        "lat": "39.6733703917656",
        "lng": "-3.6914062500000004"
      },
      "id": 98443229
    },
    {
      "cityName": "Castuera",
      "country": "Spain",
      "emoji": "游쀯릖",
      "date": "2023-07-13T00:53:31.631Z",
      "notes": "",
      "position": {
        "lat": "38.839707613545144",
        "lng": "-5.537109375000001"
      },
      "id": 98443230
    },
    {
      "cityName": "Saced칩n",
      "country": "Spain",
      "emoji": "游쀯릖",
      "date": "2023-07-13T00:56:16.971Z",
      "notes": "",
      "position": {
        "lat": "40.49709237269567",
        "lng": "-2.7026367187500004"
      },
      "id": 98443231
    },
    {
      "cityName": "A침ora",
      "country": "Spain",
      "emoji": "游쀯릖",
      "date": "2023-07-13T00:56:39.159Z",
      "notes": "",
      "position": {
        "lat": "38.34165619279595",
        "lng": "-4.899902343750001"
      },
      "id": 98443232
    },
    {
      "cityName": "Povedilla",
      "country": "Spain",
      "emoji": "游쀯릖",
      "date": "2023-07-13T00:59:27.994Z",
      "notes": "",
      "position": {
        "lat": "38.70265930723801",
        "lng": "-2.5927734375000004"
      },
      "id": 98443233
    },
    {
      "cityName": "Barreiro e Lavradio",
      "country": "Portugal",
      "emoji": "游왫릖",
      "date": "2023-07-13T01:16:51.419Z",
      "notes": "",
      "position": {
        "lat": "38.68658172716673",
        "lng": "-9.062347412109377"
      },
      "id": 98443234
    },
    {
      "cityName": "Moita",
      "country": "Portugal",
      "emoji": "游왫릖",
      "date": "2023-07-13T01:16:51.419Z",
      "notes": "",
      "position": {
        "lat": "38.65066208578038",
        "lng": "-8.982009887695314"
      },
      "id": 98443235
    },
    {
      "cityName": "Pinhal Novo",
      "country": "Portugal",
      "emoji": "游왫릖",
      "date": "2023-07-13T01:18:22.627Z",
      "notes": "",
      "position": {
        "lat": "38.65012583524745",
        "lng": "-8.93669128417969"
      },
      "id": 98443236
    },
    {
      "cityName": "Puebla De Guzm치n",
      "country": "Spain",
      "emoji": "游쀯릖",
      "date": "2023-07-13T01:33:33.579Z",
      "notes": "",
      "position": {
        "lat": "37.61423141542417",
        "lng": "-7.338867187500001"
      },
      "id": 98443237
    },
    {
      "cityName": "Municipal Unit of Kamena Vourla",
      "country": "Greece",
      "emoji": "游섫릖",
      "date": "2023-07-13T01:47:56.434Z",
      "notes": "",
      "position": {
        "lat": "38.685509760012025",
        "lng": "22.763671875000004"
      },
      "id": 98443238
    },
    {
      "cityName": "Poblaci칩n De Arroyo",
      "country": "Spain",
      "emoji": "游쀯릖",
      "date": "2023-07-14T02:11:50.494Z",
      "notes": "",
      "position": {
        "lat": "42.32606244456202",
        "lng": "-4.877929687500001"
      },
      "id": 98443239
    },
    {
      "cityName": "Queiriga",
      "country": "Portugal",
      "emoji": "游왫릖",
      "date": "2023-07-14T02:19:26.901Z",
      "notes": "",
      "position": {
        "lat": "40.81380923056961",
        "lng": "-7.756347656250001"
      },
      "id": 98443240
    },
    {
      "cityName": "Canha",
      "country": "Portugal",
      "emoji": "游왫릖",
      "date": "2023-07-14T02:41:47.304Z",
      "notes": "",
      "position": {
        "lat": "38.76907496033501",
        "lng": "-8.632507324218752"
      },
      "id": 98443241
    },
    {
      "cityName": "Manzanares",
      "country": "Spain",
      "emoji": "游쀯릖",
      "date": "2023-07-14T02:46:07.012Z",
      "notes": "",
      "position": {
        "lat": "39.07890809706475",
        "lng": "-3.27392578125"
      },
      "id": 98443242
    },
    {
      "cityName": "Alconera",
      "country": "Spain",
      "emoji": "游쀯릖",
      "date": "2023-07-14T03:22:03.341Z",
      "notes": "",
      "position": {
        "lat": "38.37611542403604",
        "lng": "-6.481933593750001"
      },
      "id": 98443243
    },
    {
      "cityName": "Hornillos De Eresma",
      "country": "Spain",
      "emoji": "游쀯릖",
      "date": "2023-07-15T04:44:43.452Z",
      "notes": "",
      "position": {
        "lat": "41.32732632036624",
        "lng": "-4.680175781250001"
      },
      "id": 98443244
    }
  ]
}